[
  {
    "nameVi": "Cổng chào Phố Ẩm thực Vĩnh Khánh",
    "descVi": "Chào mừng bạn đến với phố ẩm thực Vĩnh Khánh, Quận 4. Đây là thiên đường đồ ăn đêm nổi tiếng nhất Sài Gòn với hàng trăm quán ốc và hải sản tươi ngon.",
    "latitude": 10.7595,
    "longitude": 106.7012,
    "radius": 80,
    "imagePath": "gatevinhkhanh.jpg",
    "audioUrl": "",
    "priority": 0,
    "mapLink": ""
  },
  {
    "nameVi": "Ốc Oanh",
    "descVi": "Bạn đang ở gần Ốc Oanh, quán ốc đông khách bậc nhất con phố này. Đừng bỏ lỡ món càng ghẹ rang muối và các loại ốc xào bơ tỏi thơm nức mũi nhé.",
    "latitude": 10.7588,
    "longitude": 106.7018,
    "radius": 50,
    "imagePath": "ocoanh.jpg",
    "audioUrl": "",
    "priority": 0,
    "mapLink": ""
  },
  {
    "nameVi": "Ốc Đào 2",
    "descVi": "Bạn đang đi ngang qua Ốc Đào 2, một chi nhánh của thương hiệu ốc nổi tiếng Sài Gòn. Nơi đây thu hút thực khách bởi nước sốt đậm đà và hải sản rất tươi.",
    "latitude": 10.7582,
    "longitude": 106.7032,
    "radius": 50,
    "imagePath": "ocdao.jpg",
    "audioUrl": "",
    "priority": 0,
    "mapLink": ""
  },
  {
    "nameVi": "Sủi cảo Tân Tòng Lợi",
    "descVi": "Bên tay trái bạn là Sủi cảo Tân Tòng Lợi. Nếu đã chán đồ biển, hãy thử món sủi cảo tôm thịt chuẩn vị người Hoa tại đây, rất thơm ngon và đậm đà.",
    "latitude": 10.758,
    "longitude": 106.7038,
    "radius": 50,
    "imagePath": "suicao.jpg",
    "audioUrl": "",
    "priority": 0,
    "mapLink": ""
  },
  {
    "nameVi": "Lẩu bò Khu Nhà Cháy",
    "descVi": "Chào mừng bạn đến với Lẩu bò Khu Nhà Cháy. Đây là điểm dừng chân lý tưởng cho những tín đồ lẩu bò với nước dùng thanh ngọt và các loại topping phong phú.",
    "latitude": 10.7575,
    "longitude": 106.7045,
    "radius": 60,
    "imagePath": "laubo.jpg",
    "audioUrl": "",
    "priority": 0,
    "mapLink": ""
  },
  {
    "nameVi": "Ốc Vũ",
    "descVi": "Bạn đang ở gần Ốc Vũ. Quán nổi tiếng với không gian rộng rãi, thoáng mát và thực đơn đa dạng từ các loại ốc bình dân đến hải sản cao cấp.",
    "latitude": 10.7568,
    "longitude": 106.7058,
    "radius": 50,
    "imagePath": "ocvu.jpg",
    "audioUrl": "",
    "priority": 0,
    "mapLink": ""
  },
  {
    "nameVi": "Ốc Linh",
    "descVi": "Phía trước là Ốc Linh, một quán ăn vỉa hè đúng chất Sài Gòn. Đồ ăn ở đây giá cả rất phải chăng nhưng chất lượng lại không hề thua kém các quán lớn.",
    "latitude": 10.7562,
    "longitude": 106.7065,
    "radius": 50,
    "imagePath": "oclinh.jpg",
    "audioUrl": "",
    "priority": 0,
    "mapLink": ""
  },
  {
    "nameVi": "Cuối đường Vĩnh Khánh",
    "descVi": "Bạn đã đi đến cuối trục đường ẩm thực Vĩnh Khánh. Hy vọng bạn đã có một hành trình khám phá ẩm thực Quận 4 thật thú vị và đầy ắp kỷ niệm.",
    "latitude": 10.7555,
    "longitude": 106.7072,
    "radius": 80,
    "imagePath": "endroad.jpg",
    "audioUrl": "",
    "priority": 0,
    "mapLink": ""
  }
]